{
"type": "FeatureCollection",
"name": "Farmacias_de_Murcia",
"crs": { "type": "name", "properties": { "name": "urn:ogc:def:crs:OGC:1.3:CRS84" } },
"features": [
{ "type": "Feature", "properties": { "OBJECTID": 1, "Código": 1723, "Nombre": "ALEMÁN ALEMÁN, FRANCISCO", "Dirección": "C/ Princesa, 15", "C_P_": null, "Municipio": "Murcia", "Pedanía": "MURCIA", "Teléfono": 968350225, "Fax": null, "Email": null, "URL_Real": null, "URL_Corta": null, "Latitud": 4205498, "Longitud": 664551 }, "geometry": { "type": "Point", "coordinates": [ -1.12762913513346, 37.9803658902241 ] } },
{ "type": "Feature", "properties": { "OBJECTID": 2, "Código": 2007, "Nombre": "AYUSO HERNÁNDEZ, ENRIQUE Y CARLOS", "Dirección": "Av.Doctor Quesada sanz, 6", "C_P_": null, "Municipio": "Murcia", "Pedanía": "MURCIA", "Teléfono": 968298778, "Fax": null, "Email": null, "URL_Real": null, "URL_Corta": null, "Latitud": 4206194, "Longitud": 663476 }, "geometry": { "type": "Point", "coordinates": [ -1.13970509812308, 37.986829761806199 ] } },
{ "type": "Feature", "properties": { "OBJECTID": 3, "Código": 1999, "Nombre": "BERNABÉ ORTUÑO,FRANCISCO.BERNABÉ RUIZ, NURIA Y FRANCISCO", "Dirección": "Cl.Olma, s/n", "C_P_": null, "Municipio": "Murcia", "Pedanía": "MURCIA", "Teléfono": 968291678, "Fax": null, "Email": null, "URL_Real": null, "URL_Corta": null, "Latitud": 4206335, "Longitud": 663495 }, "geometry": { "type": "Point", "coordinates": [ -1.1394567362089, 37.988096493248399 ] } },
{ "type": "Feature", "properties": { "OBJECTID": 4, "Código": 2003, "Nombre": "CAMPILLO GARCÍA, MARÍA ASCENSIÓN", "Dirección": "Cr.del Palmar, 30", "C_P_": null, "Municipio": "Murcia", "Pedanía": "MURCIA", "Teléfono": 968251586, "Fax": null, "Email": null, "URL_Real": null, "URL_Corta": null, "Latitud": 4204680, "Longitud": 663826 }, "geometry": { "type": "Point", "coordinates": [ -1.13606677017781, 37.9731282998737 ] } },
{ "type": "Feature", "properties": { "OBJECTID": 5, "Código": 2002, "Nombre": "CLAVEL ROJO, ARACELI", "Dirección": "Pz.Cruz Roja, 2", "C_P_": null, "Municipio": "Murcia", "Pedanía": "MURCIA", "Teléfono": 968912279, "Fax": null, "Email": null, "URL_Real": null, "URL_Corta": null, "Latitud": 4205716, "Longitud": 664679 }, "geometry": { "type": "Point", "coordinates": [ -1.12612241338855, 37.982306447638102 ] } },
{ "type": "Feature", "properties": { "OBJECTID": 6, "Código": 1958, "Nombre": "CORBALÁN BELMONTE, AMELIA", "Dirección": "Ronda de Levante, 5 (junto Sanatorio Mesa del Castillo)", "C_P_": null, "Municipio": "Murcia", "Pedanía": "MURCIA", "Teléfono": 968235725, "Fax": null, "Email": null, "URL_Real": null, "URL_Corta": null, "Latitud": 4206824, "Longitud": 664395 }, "geometry": { "type": "Point", "coordinates": [ -1.12910094452681, 37.992338930874702 ] } },
{ "type": "Feature", "properties": { "OBJECTID": 7, "Código": 1963, "Nombre": "ESPÍN MESAS, MARÍA SOLEDAD", "Dirección": "Torre de Romo, 70 (Ctra. de Algezares, antes de llegar a la vía del tren, frene a Casas Baratas)", "C_P_": null, "Municipio": "Murcia", "Pedanía": "MURCIA", "Teléfono": 968252325, "Fax": null, "Email": null, "URL_Real": null, "URL_Corta": null, "Latitud": 4205026, "Longitud": 664843 }, "geometry": { "type": "Point", "coordinates": [ -1.1244142759985, 37.976061080987499 ] } },
{ "type": "Feature", "properties": { "OBJECTID": 8, "Código": 1997, "Nombre": "FERNÁNDEZ PÉREZ, CARLOS", "Dirección": "Cl.Cronista Carlos Valcárcel, 2", "C_P_": null, "Municipio": "Murcia", "Pedanía": "MURCIA", "Teléfono": 968204229, "Fax": null, "Email": null, "URL_Real": null, "URL_Corta": null, "Latitud": 4206779, "Longitud": 664015 }, "geometry": { "type": "Point", "coordinates": [ -1.13343664148539, 37.992002309217298 ] } },
{ "type": "Feature", "properties": { "OBJECTID": 9, "Código": 2005, "Nombre": "FERNÁNDEZ PÉREZ, FRANCISCO JAVIER", "Dirección": "Av.Ronda Norte, 12", "C_P_": null, "Municipio": "Murcia", "Pedanía": "MURCIA", "Teléfono": 968292956, "Fax": null, "Email": null, "URL_Real": null, "URL_Corta": null, "Latitud": 4206829, "Longitud": 663587 }, "geometry": { "type": "Point", "coordinates": [ -1.13829702103907, 37.992529954101698 ] } },
{ "type": "Feature", "properties": { "OBJECTID": 10, "Código": 1809, "Nombre": "FERRANDO PRIETO, MARÍA DOLORES", "Dirección": "Trapería, 1 (junto a la Catedral)", "C_P_": null, "Municipio": "Murcia", "Pedanía": "MURCIA", "Teléfono": 968212829, "Fax": null, "Email": null, "URL_Real": null, "URL_Corta": null, "Latitud": 4205970, "Longitud": 664420 }, "geometry": { "type": "Point", "coordinates": [ -1.1290119540766, 37.984641465823799 ] } },
{ "type": "Feature", "properties": { "OBJECTID": 11, "Código": 1979, "Nombre": "GARCÍA-LAX ESPINOSA, ENCARNACIÓN", "Dirección": "C/ Auroros, 3 (frente ambulatorio de el Carmen)", "C_P_": null, "Municipio": "Murcia", "Pedanía": "MURCIA", "Teléfono": 968263865, "Fax": null, "Email": null, "URL_Real": null, "URL_Corta": null, "Latitud": 4205402, "Longitud": 664531 }, "geometry": { "type": "Point", "coordinates": [ -1.12787874093395, 37.979504735122703 ] } },
{ "type": "Feature", "properties": { "OBJECTID": 12, "Código": 1949, "Nombre": "GIL CEPEDA, LUIS MIGUEL", "Dirección": "Av.Ciudad de Almería,59", "C_P_": null, "Municipio": "Murcia", "Pedanía": "MURCIA", "Teléfono": 968251127, "Fax": null, "Email": null, "URL_Real": null, "URL_Corta": null, "Latitud": 4204851, "Longitud": 662954 }, "geometry": { "type": "Point", "coordinates": [ -1.14595113811391, 37.9748255703796 ] } },
{ "type": "Feature", "properties": { "OBJECTID": 13, "Código": 1994, "Nombre": "GOROSTIZA RUIZ, IGNACIO", "Dirección": "Pz. Puxmarina, 5", "C_P_": null, "Municipio": "Murcia", "Pedanía": "MURCIA", "Teléfono": 968213226, "Fax": null, "Email": null, "URL_Real": null, "URL_Corta": null, "Latitud": 4205953, "Longitud": 664275 }, "geometry": { "type": "Point", "coordinates": [ -1.13066615526804, 37.984514574726397 ] } },
{ "type": "Feature", "properties": { "OBJECTID": 14, "Código": 1980, "Nombre": "GUTIÉRREZ GALIANO, MONSERRAT", "Dirección": "C/ Dr. López Ambit, 5 (detrás Hospital Morales Meseguer)", "C_P_": null, "Municipio": "Murcia", "Pedanía": "MURCIA", "Teléfono": 968230072, "Fax": null, "Email": null, "URL_Real": null, "URL_Corta": null, "Latitud": 4207176, "Longitud": 664300 }, "geometry": { "type": "Point", "coordinates": [ -1.13010172215618, 37.995526990341503 ] } },
{ "type": "Feature", "properties": { "OBJECTID": 15, "Código": 1983, "Nombre": "JIMÉNEZ INGLÉS, MARÍA DOLORES", "Dirección": "Avda. Río Segura, 9 (entre Puente Nuevo y La Pasarela)", "C_P_": null, "Municipio": "Murcia", "Pedanía": "MURCIA", "Teléfono": 968211160, "Fax": null, "Email": null, "URL_Real": null, "URL_Corta": null, "Latitud": 4205645, "Longitud": 664393 }, "geometry": { "type": "Point", "coordinates": [ -1.12939365028972, 37.981718711739802 ] } },
{ "type": "Feature", "properties": { "OBJECTID": 16, "Código": 1988, "Nombre": "MARÍN SÁNCHEZ, JUAN PEDRO Y JOSÉ LUIS", "Dirección": "Ronda de Garay, 37 (frente Plaza de Toros)", "C_P_": null, "Municipio": "Murcia", "Pedanía": "MURCIA", "Teléfono": 968218699, "Fax": null, "Email": null, "URL_Real": null, "URL_Corta": null, "Latitud": 4205996, "Longitud": 664918 }, "geometry": { "type": "Point", "coordinates": [ -1.12333804314004, 37.984785322651902 ] } },
{ "type": "Feature", "properties": { "OBJECTID": 17, "Código": 1765, "Nombre": "MARTINEZ BELLVIS, EDUARDO LUIS", "Dirección": "Simón García, 1", "C_P_": null, "Municipio": "Murcia", "Pedanía": "MURCIA", "Teléfono": 968214301, "Fax": null, "Email": null, "URL_Real": null, "URL_Corta": null, "Latitud": 4205845, "Longitud": 664678 }, "geometry": { "type": "Point", "coordinates": [ -1.12610421361931, 37.983468675983701 ] } },
{ "type": "Feature", "properties": { "OBJECTID": 18, "Código": 1990, "Nombre": "MARTÍNEZ LÓPEZ, MIGUEL ANGEL", "Dirección": "Gran Vía Salzillo, 10  (Frente ARGENTARIA)", "C_P_": null, "Municipio": "Murcia", "Pedanía": "MURCIA", "Teléfono": 968211828, "Fax": null, "Email": null, "URL_Real": null, "URL_Corta": null, "Latitud": 4205994, "Longitud": 664164 }, "geometry": { "type": "Point", "coordinates": [ -1.13192012349446, 37.984903985582001 ] } },
{ "type": "Feature", "properties": { "OBJECTID": 19, "Código": 1951, "Nombre": "MECA POMARES, Mª CARMEN Y LÓPEZ MECA, Mª CARMEN", "Dirección": "Cl.Pintor Almela Costa, 10", "C_P_": null, "Municipio": "Murcia", "Pedanía": "MURCIA", "Teléfono": 968260521, "Fax": null, "Email": null, "URL_Real": null, "URL_Corta": null, "Latitud": 4204959, "Longitud": 665075 }, "geometry": { "type": "Point", "coordinates": [ -1.12178949869455, 37.975415384202002 ] } },
{ "type": "Feature", "properties": { "OBJECTID": 20, "Código": 2004, "Nombre": "MOLINA MARTÍNEZ, ANTONIO JUAN", "Dirección": "Ps. de Florencia, 54", "C_P_": null, "Municipio": "Murcia", "Pedanía": "MURCIA", "Teléfono": 968346450, "Fax": null, "Email": null, "URL_Real": null, "URL_Corta": null, "Latitud": 4204316, "Longitud": 664539 }, "geometry": { "type": "Point", "coordinates": [ -1.12803641148263, 37.969720447635098 ] } },
{ "type": "Feature", "properties": { "OBJECTID": 21, "Código": 1995, "Nombre": "MOLINA NICOLÁS, MARÍA ANGELES", "Dirección": "Pz.San Pedro, 2", "C_P_": null, "Municipio": "Murcia", "Pedanía": "MURCIA", "Teléfono": 968214622, "Fax": null, "Email": null, "URL_Real": null, "URL_Corta": null, "Latitud": 4205941, "Longitud": 664035 }, "geometry": { "type": "Point", "coordinates": [ -1.1334004466476, 37.984449869537897 ] } },
{ "type": "Feature", "properties": { "OBJECTID": 22, "Código": 2006, "Nombre": "MORA FLORES, MARÍA TERESA", "Dirección": "Av.Marqués de los Vélez, 20", "C_P_": null, "Municipio": "Murcia", "Pedanía": "MURCIA", "Teléfono": 968234906, "Fax": null, "Email": null, "URL_Real": null, "URL_Corta": null, "Latitud": 4206976, "Longitud": 664415 }, "geometry": { "type": "Point", "coordinates": [ -1.12883847531182, 37.993704541021998 ] } },
{ "type": "Feature", "properties": { "OBJECTID": 23, "Código": 1996, "Nombre": "PEÑALVER SÁNCHEZ,  BEGOÑA", "Dirección": "Pz.Santa Catalina, 2", "C_P_": null, "Municipio": "Murcia", "Pedanía": "MURCIA", "Teléfono": 968211535, "Fax": null, "Email": null, "URL_Real": null, "URL_Corta": null, "Latitud": 4206026, "Longitud": 664093 }, "geometry": { "type": "Point", "coordinates": [ -1.13272089888581, 37.985205081365699 ] } },
{ "type": "Feature", "properties": { "OBJECTID": 24, "Código": 2009, "Nombre": "PEÑALVER SÁNCHEZ, SARA", "Dirección": "C/ Antonete Gálvez, 16 (frente gasolinera Atalayas, junto lavadero Rapid)", "C_P_": null, "Municipio": "Murcia", "Pedanía": "MURCIA", "Teléfono": 968239135, "Fax": null, "Email": null, "URL_Real": null, "URL_Corta": null, "Latitud": 4206511, "Longitud": 665078 }, "geometry": { "type": "Point", "coordinates": [ -1.12139861084669, 37.989395398948403 ] } },
{ "type": "Feature", "properties": { "OBJECTID": 25, "Código": 2008, "Nombre": "POLO GARCÍA, MARÍA SOL", "Dirección": "Av.Antoñete Gálvez, 4", "C_P_": null, "Municipio": "Murcia", "Pedanía": "MURCIA", "Teléfono": 968243276, "Fax": null, "Email": null, "URL_Real": null, "URL_Corta": null, "Latitud": 4206500, "Longitud": 664803 }, "geometry": { "type": "Point", "coordinates": [ -1.12453122274552, 37.989346294960399 ] } },
{ "type": "Feature", "properties": { "OBJECTID": 26, "Código": 1998, "Nombre": "RUANO GARCÍA, FRANCISCO", "Dirección": "Av.Gran Via Escultor Salzillo,19", "C_P_": null, "Municipio": "Murcia", "Pedanía": "MURCIA", "Teléfono": 968216038, "Fax": null, "Email": null, "URL_Real": null, "URL_Corta": null, "Latitud": 4206242, "Longitud": 664125 }, "geometry": { "type": "Point", "coordinates": [ -1.13230731712335, 37.987145056135297 ] } },
{ "type": "Feature", "properties": { "OBJECTID": 27, "Código": 2001, "Nombre": "RUIZ PINA, FRANCISCO ARTURO", "Dirección": "Pz.Federico Servet, 4", "C_P_": null, "Municipio": "Murcia", "Pedanía": "MURCIA", "Teléfono": 968258523, "Fax": null, "Email": null, "URL_Real": null, "URL_Corta": null, "Latitud": 4205872, "Longitud": 665397 }, "geometry": { "type": "Point", "coordinates": [ -1.11791491778768, 37.983581156933298 ] } },
{ "type": "Feature", "properties": { "OBJECTID": 28, "Código": 2011, "Nombre": "SÁNCHEZ PUCHE, DAVID  Y JOSE ANTONIO", "Dirección": "C/ Condestable - Edif. Cónsul (junto aparcamiento de El Corte Inglés)", "C_P_": null, "Municipio": "Murcia", "Pedanía": "MURCIA", "Teléfono": 968295925, "Fax": null, "Email": null, "URL_Real": null, "URL_Corta": null, "Latitud": 4206564, "Longitud": 663944 }, "geometry": { "type": "Point", "coordinates": [ -1.1342939088206, 37.990078384512302 ] } },
{ "type": "Feature", "properties": { "OBJECTID": 29, "Código": 2000, "Nombre": "SÁNCHEZ SÁNCHEZ , MARÍA DEL CARMEN", "Dirección": "Cl.Panochista Antonio Piñero González, 3", "C_P_": null, "Municipio": "Murcia", "Pedanía": "MURCIA", "Teléfono": 968245577, "Fax": null, "Email": null, "URL_Real": null, "URL_Corta": null, "Latitud": 4207497, "Longitud": 663862 }, "geometry": { "type": "Point", "coordinates": [ -1.13501425993737, 37.998497789484901 ] } },
{ "type": "Feature", "properties": { "OBJECTID": 30, "Código": 1710, "Nombre": "SÁNCHEZ SÁNCHEZ, PEDRO", "Dirección": "Avda. Rector José Loustau - (esquina Plaza Juan XIII, frente a ISSORM)", "C_P_": null, "Municipio": "Murcia", "Pedanía": "MURCIA", "Teléfono": 968245319, "Fax": null, "Email": null, "URL_Real": null, "URL_Corta": null, "Latitud": 4206652, "Longitud": 664707 }, "geometry": { "type": "Point", "coordinates": [ -1.12558903443999, 37.990732956131403 ] } },
{ "type": "Feature", "properties": { "OBJECTID": 31, "Código": 1993, "Nombre": "SANDOVAL BARNUEVO, EUGENIO", "Dirección": "Pz. Martinez Tornel, 1", "C_P_": null, "Municipio": "Murcia", "Pedanía": "MURCIA", "Teléfono": 968211849, "Fax": null, "Email": null, "URL_Real": null, "URL_Corta": null, "Latitud": 4205836, "Longitud": 664167 }, "geometry": { "type": "Point", "coordinates": [ -1.13192209912853, 37.9834801563387 ] } },
{ "type": "Feature", "properties": { "OBJECTID": 32, "Código": 1715, "Nombre": "TOLEDO ROMERO, CÉSAR", "Dirección": "Ronda Norte, 26 (Edif. Estrella, junto a Renault)", "C_P_": null, "Municipio": "Murcia", "Pedanía": "MURCIA", "Teléfono": 968295301, "Fax": null, "Email": null, "URL_Real": null, "URL_Corta": null, "Latitud": 4206827, "Longitud": 663398 }, "geometry": { "type": "Point", "coordinates": [ -1.14044881620905, 37.992545980954503 ] } },
{ "type": "Feature", "properties": { "OBJECTID": 33, "Código": 1950, "Nombre": "ZARAGOZA FERNÁNDEZ, PILAR", "Dirección": "Cl.Vinadel, 9", "C_P_": null, "Municipio": "Murcia", "Pedanía": "MURCIA", "Teléfono": 968216363, "Fax": null, "Email": null, "URL_Real": null, "URL_Corta": null, "Latitud": 4206150, "Longitud": 664013 }, "geometry": { "type": "Point", "coordinates": [ -1.13360310162722, 37.986336547569699 ] } }
]
}
